[{"name":"Teruel","lat":40.3456879,"lng":-1.1064345,"id":24},{"name":"Cuenca","lat":40.0703925,"lng":-2.1374162,"id":27,"dtemp":92.74767347308209},{"name":"Albacete","lat":38.994349,"lng":-1.8585424,"id":20,"dtemp":122.01723178233968},{"name":"Murcia","lat":37.99223990000001,"lng":-1.1306544,"id":23,"dtemp":128.17644043712596},{"name":"Benidorm","lat":38.5410566,"lng":-0.1224937,"id":16,"dtemp":107.10110276026414},{"name":"Valencia","lat":39.4699075,"lng":-0.3762881,"id":3,"dtemp":105.5858435016108},{"name":"Zaragoza","lat":41.64882259999999,"lng":-0.8890853,"id":1,"dtemp":246.12517904451013},{"name":"Huesca","lat":42.13184499999999,"lng":-0.4078058,"id":19,"dtemp":66.87147488784461},{"name":"Lérida","lat":41.6175899,"lng":0.6200146,"id":26,"dtemp":102.52598863127342},{"name":"Barcelona","lat":41.38506389999999,"lng":2.1734035,"id":2,"dtemp":131.92026589047313},{"name":"Gerona","lat":41.9794005,"lng":2.8214264,"id":6,"dtemp":85.22617685389851},{"name":"Pamplona","lat":42.812526,"lng":-1.6457745,"id":11,"dtemp":378.3012289669951},{"name":"San Sebastián","lat":43.318334,"lng":-1.981231299999999,"id":29,"dtemp":62.49734178614567},{"name":"Bilbao","lat":43.2630126,"lng":-2.9349852,"id":9,"dtemp":77.43831104791519},{"name":"Logroño","lat":42.4627195,"lng":-2.4449852,"id":12,"dtemp":97.53884325810851},{"name":"Soria","lat":41.76659719999999,"lng":-2.4790306,"id":25,"dtemp":77.45618988173585},{"name":"Madrid","lat":40.4167754,"lng":-3.7037902,"id":0,"dtemp":181.82660076253148},{"name":"Salamanca","lat":40.9701039,"lng":-5.6635397,"id":10,"dtemp":176.30353119539686},{"name":"Zamora","lat":41.5034712,"lng":-5.7467879,"id":21,"dtemp":59.714842517532915},{"name":"Oviedo","lat":43.3619145,"lng":-5.8493887,"id":28,"dtemp":206.82089730866443},{"name":"Lugo","lat":43.0097384,"lng":-7.5567582,"id":17,"dtemp":143.85685077311774},{"name":"La Coruña","lat":43.3623436,"lng":-8.4115401,"id":8,"dtemp":79.62405436336834},{"name":"Cáceres","lat":39.4752765,"lng":-6.372424699999999,"id":18,"dtemp":464.42221757935744},{"name":"Badajoz","lat":38.87944950000001,"lng":-6.9706535,"id":7,"dtemp":83.95483751347412},{"name":"Huelva","lat":37.261421,"lng":-6.9447224,"id":13,"dtemp":179.9308769831584},{"name":"Sevilla","lat":37.3890924,"lng":-5.9844589,"id":14,"dtemp":86.08748384803971},{"name":"Córdoba","lat":37.8881751,"lng":-4.7793835,"id":15,"dtemp":119.74467447296783},{"name":"Jaén","lat":37.7795941,"lng":-3.784905699999999,"id":22,"dtemp":88.16610327221557},{"name":"Málaga","lat":36.721261,"lng":-4.4212655,"id":5,"dtemp":130.46494704230125},{"name":"Almería","lat":36.834047,"lng":-2.4637136,"id":4,"dtemp":174.79328472094906},{"name":"León","lat":42.5987263,"lng":-5.5670959,"id":30},{"name":"Tarragona","lat":41.1188827,"lng":1.2444909,"id":31},{"name":"Valladolid","lat":41.652251,"lng":-4.724532099999998,"id":32},{"name":"Burgos","lat":42.34399250000001,"lng":-3.696906,"id":33},{"name":"Santander","lat":43.46230569999999,"lng":-3.8099803,"id":34},{"name":"Gijón","lat":43.5322015,"lng":-5.661119499999999,"id":35},{"name":"Plasencia","lat":40.04209549999999,"lng":-6.0838065,"id":36},{"name":"Cádiz","lat":36.5270612,"lng":-6.288596200000001,"id":37},{"name":"Castellón de la Plana","lat":39.9863563,"lng":-0.0513246,"id":38},{"name":"Segovia","lat":40.9429032,"lng":-4.1088069,"id":39},{"name":"Ciudad Real","lat":38.9848295,"lng":-3.927377799999999,"id":40},{"name":"Santiago de Compostela","lat":42.8782132,"lng":-8.544844500000002,"id":41},{"name":"Marbella","lat":36.510071,"lng":-4.8824474,"id":42},{"name":"Ponferrada","lat":42.5499958,"lng":-6.598259000000001,"id":43},{"name":"Vitoria-Gasteiz","lat":42.85023699999999,"lng":-2.6728711,"id":44},{"name":"Talavera de la Reina","lat":39.962884,"lng":-4.830453599999999,"id":45},{"name":"Granada","lat":37.1773363,"lng":-3.5985571,"id":46},{"name":"Cartagena","lat":37.62568269999999,"lng":-0.9965838999999997,"id":47},{"name":"Mota del Cuervo","lat":39.50154130000001,"lng":-2.8714275,"id":48},{"name":"Tortosa","lat":40.8125777,"lng":0.5214422999999999,"id":49}]