[{"name":"Madrid","lat":40.4167754,"lng":-3.7037902,"id":0},{"name":"Zaragoza","lat":41.64882259999999,"lng":-0.8890853,"id":1},{"name":"Barcelona","lat":41.38506389999999,"lng":2.1734035,"id":2},{"name":"Valencia","lat":39.4699075,"lng":-0.3762881,"id":3},{"name":"Almería","lat":36.834047,"lng":-2.4637136,"id":4},{"name":"Málaga","lat":36.721261,"lng":-4.4212655,"id":5},{"name":"Gerona","lat":41.9794005,"lng":2.8214264,"id":6},{"name":"Badajoz","lat":38.87944950000001,"lng":-6.9706535,"id":7},{"name":"La Coruña","lat":43.3623436,"lng":-8.4115401,"id":8},{"name":"Bilbao","lat":43.2630126,"lng":-2.9349852,"id":9},{"name":"Salamanca","lat":40.9701039,"lng":-5.6635397,"id":10},{"name":"Pamplona","lat":42.812526,"lng":-1.6457745,"id":11},{"name":"Logroño","lat":42.4627195,"lng":-2.4449852,"id":12},{"name":"Huelva","lat":37.261421,"lng":-6.9447224,"id":13},{"name":"Sevilla","lat":37.3890924,"lng":-5.9844589,"id":14},{"name":"Córdoba","lat":37.8881751,"lng":-4.7793835,"id":15},{"name":"Benidorm","lat":38.5410566,"lng":-0.1224937,"id":16},{"name":"Lugo","lat":43.0097384,"lng":-7.5567582,"id":17},{"name":"Cáceres","lat":39.4752765,"lng":-6.372424699999999,"id":18},{"name":"Huesca","lat":42.13184499999999,"lng":-0.4078058,"id":19},{"name":"Albacete","lat":38.994349,"lng":-1.8585424,"id":20},{"name":"Zamora","lat":41.5034712,"lng":-5.7467879,"id":21},{"name":"Jaén","lat":37.7795941,"lng":-3.784905699999999,"id":22},{"name":"Murcia","lat":37.99223990000001,"lng":-1.1306544,"id":23},{"name":"Teruel","lat":40.3456879,"lng":-1.1064345,"id":24},{"name":"Soria","lat":41.76659719999999,"lng":-2.4790306,"id":25},{"name":"Lérida","lat":41.6175899,"lng":0.6200146,"id":26},{"name":"Cuenca","lat":40.0703925,"lng":-2.1374162,"id":27},{"name":"Oviedo","lat":43.3619145,"lng":-5.8493887,"id":28},{"name":"San Sebastián","lat":43.318334,"lng":-1.981231299999999,"id":29}]